[
    {
        "name": "강동구",
        "latitude": 37.5301933196226,
        "longitude": 127.123792501253,
        "as_count": 5
    },
    {
        "name": "강릉시",
        "latitude": 37.75211261895363,
        "longitude": 128.8759039903278,
        "as_count": 292
    },
    {
        "name": "강북구",
        "latitude": 37.6397513275933,
        "longitude": 127.025538071854,
        "as_count": 31
    },
    {
        "name": "강서구",
        "latitude": 37.5509646154307,
        "longitude": 126.849533759513,
        "as_count": 147
    },
    {
        "name": "고성군",
        "latitude": 38.3805924324258,
        "longitude": 128.467866303864,
        "as_count": 32
    }
]